[
  { "name": "Himalayas", "kind": "range", "lat": 28.5, "lon": 83.9, "region": "Asia", "big": true },
  { "name": "Alps", "kind": "range", "lat": 46.5, "lon": 9.5, "region": "Europe", "big": true },
  { "name": "Andes", "kind": "range", "lat": -20, "lon": -68, "region": "Americas", "big": true },
  { "name": "Rocky Mountains", "kind": "range", "lat": 43, "lon": -110, "region": "Americas", "big": true },
  { "name": "Appalachians", "kind": "range", "lat": 38, "lon": -80, "region": "Americas" },
  { "name": "Ural Mountains", "kind": "range", "lat": 60, "lon": 59, "region": "Europe" },
  { "name": "Caucasus", "kind": "range", "lat": 42.8, "lon": 44, "region": "Asia" },
  { "name": "Atlas Mountains", "kind": "range", "lat": 31.5, "lon": -6, "region": "Africa" },
  { "name": "Zagros", "kind": "range", "lat": 33, "lon": 47, "region": "Asia" },
  { "name": "Carpathians", "kind": "range", "lat": 47.5, "lon": 24.5, "region": "Europe" },
  { "name": "Scandes", "kind": "range", "lat": 65, "lon": 14, "region": "Europe" },
  { "name": "Great Dividing Range", "kind": "range", "lat": -30, "lon": 151, "region": "Oceania" },
  { "name": "Drakensberg", "kind": "range", "lat": -29.5, "lon": 29.3, "region": "Africa" },
  { "name": "Tien Shan", "kind": "range", "lat": 42, "lon": 80, "region": "Asia" },
  { "name": "Altai", "kind": "range", "lat": 49, "lon": 89, "region": "Asia" },
  { "name": "Pyrenees", "kind": "range", "lat": 42.6, "lon": 1, "region": "Europe" },
  { "name": "Apennines", "kind": "range", "lat": 43, "lon": 13, "region": "Europe" },

  { "name": "Pacific Ocean", "kind": "ocean", "lat": 0, "lon": -150, "region": "Oceania", "big": true },
  { "name": "Atlantic Ocean", "kind": "ocean", "lat": 5, "lon": -30, "region": "Americas", "big": true },
  { "name": "Indian Ocean", "kind": "ocean", "lat": -25, "lon": 78, "region": "Asia", "big": true },
  { "name": "Arctic Ocean", "kind": "ocean", "lat": 84, "lon": 0, "region": "Europe", "big": true },
  { "name": "Southern Ocean", "kind": "ocean", "lat": -62, "lon": 20, "region": "Antarctic", "big": true },

  { "name": "Mediterranean Sea", "kind": "sea", "lat": 35, "lon": 18, "region": "Europe", "big": true },
  { "name": "Caribbean Sea", "kind": "sea", "lat": 15, "lon": -75, "region": "Americas" },
  { "name": "Caspian Sea", "kind": "sea", "lat": 41.5, "lon": 50.5, "region": "Asia" },
  { "name": "Black Sea", "kind": "sea", "lat": 43.4, "lon": 34, "region": "Europe" },
  { "name": "Red Sea", "kind": "sea", "lat": 20, "lon": 38, "region": "Africa" },
  { "name": "Baltic Sea", "kind": "sea", "lat": 58, "lon": 20, "region": "Europe" },
  { "name": "North Sea", "kind": "sea", "lat": 56, "lon": 3, "region": "Europe" },
  { "name": "Arabian Sea", "kind": "sea", "lat": 15, "lon": 65, "region": "Asia" },
  { "name": "Bay of Bengal", "kind": "sea", "lat": 15, "lon": 88, "region": "Asia" },
  { "name": "South China Sea", "kind": "sea", "lat": 13, "lon": 114, "region": "Asia" },
  { "name": "Coral Sea", "kind": "sea", "lat": -18, "lon": 152, "region": "Oceania" },
  { "name": "Bering Sea", "kind": "sea", "lat": 58, "lon": -178, "region": "Asia" },
  { "name": "Sea of Japan", "kind": "sea", "lat": 40, "lon": 135, "region": "Asia" },
  { "name": "Gulf of Mexico", "kind": "sea", "lat": 25, "lon": -90, "region": "Americas" },
  { "name": "Persian Gulf", "kind": "sea", "lat": 27, "lon": 51, "region": "Asia" },
  { "name": "Hudson Bay", "kind": "sea", "lat": 60, "lon": -86, "region": "Americas" },

  { "name": "Nile", "kind": "river", "lat": 27, "lon": 31, "region": "Africa", "big": true },
  { "name": "Amazon", "kind": "river", "lat": -3, "lon": -60, "region": "Americas", "big": true },
  { "name": "Yangtze", "kind": "river", "lat": 30.5, "lon": 112, "region": "Asia", "big": true },
  { "name": "Mississippi", "kind": "river", "lat": 37, "lon": -90, "region": "Americas", "big": true },
  { "name": "Yenisei", "kind": "river", "lat": 66, "lon": 86, "region": "Asia" },
  { "name": "Yellow River", "kind": "river", "lat": 36, "lon": 110, "region": "Asia" },
  { "name": "Ob", "kind": "river", "lat": 62, "lon": 71, "region": "Asia" },
  { "name": "Parana", "kind": "river", "lat": -27, "lon": -58, "region": "Americas" },
  { "name": "Congo", "kind": "river", "lat": -1, "lon": 17, "region": "Africa" },
  { "name": "Amur", "kind": "river", "lat": 51, "lon": 130, "region": "Asia" },
  { "name": "Lena", "kind": "river", "lat": 68, "lon": 125, "region": "Asia" },
  { "name": "Mekong", "kind": "river", "lat": 18, "lon": 104, "region": "Asia" },
  { "name": "Niger", "kind": "river", "lat": 13, "lon": -4, "region": "Africa" },
  { "name": "Volga", "kind": "river", "lat": 50, "lon": 46, "region": "Europe" },
  { "name": "Danube", "kind": "river", "lat": 45, "lon": 21, "region": "Europe" },
  { "name": "Ganges", "kind": "river", "lat": 25, "lon": 86, "region": "Asia" },
  { "name": "Indus", "kind": "river", "lat": 27, "lon": 68, "region": "Asia" },
  { "name": "Euphrates", "kind": "river", "lat": 33, "lon": 43, "region": "Asia" },
  { "name": "Rhine", "kind": "river", "lat": 50, "lon": 7.5, "region": "Europe" },
  { "name": "Murray", "kind": "river", "lat": -34.5, "lon": 142, "region": "Oceania" },
  { "name": "Colorado", "kind": "river", "lat": 36, "lon": -112, "region": "Americas" },
  { "name": "Mackenzie", "kind": "river", "lat": 66, "lon": -130, "region": "Americas" },
  { "name": "Zambezi", "kind": "river", "lat": -16, "lon": 31, "region": "Africa" },
  { "name": "St Lawrence", "kind": "river", "lat": 47, "lon": -70, "region": "Americas" },

  { "name": "Missouri", "kind": "river", "lat": 44.49, "lon": -100.58, "region": "Americas" },
  { "name": "Ohio", "kind": "river", "lat": 38.79, "lon": -84.81, "region": "Americas" },
  { "name": "Columbia", "kind": "river", "lat": 48.13, "lon": -119.09, "region": "Americas" },
  { "name": "Rio Grande", "kind": "river", "lat": 29.59, "lon": -104.44, "region": "Americas" },
  { "name": "Yukon", "kind": "river", "lat": 65.92, "lon": -149.85, "region": "Americas" },
  { "name": "Orinoco", "kind": "river", "lat": 6.17, "lon": -67.49, "region": "Americas" },
  { "name": "Sao Francisco", "kind": "river", "lat": -9.7, "lon": -42.09, "region": "Americas" },
  { "name": "Magdalena", "kind": "river", "lat": 8.04, "lon": -73.87, "region": "Americas" },
  { "name": "Tigris", "kind": "river", "lat": 33.29, "lon": 44.38, "region": "Asia" },
  { "name": "Shatt al Arab", "kind": "river", "lat": 30.32, "lon": 48.2, "region": "Asia" },
  { "name": "Brahmaputra", "kind": "river", "lat": 28.85, "lon": 94.77, "region": "Asia" },
  { "name": "Irrawaddy", "kind": "river", "lat": 21.2, "lon": 94.82, "region": "Asia" },
  { "name": "Salween", "kind": "river", "lat": 18.33, "lon": 97.45, "region": "Asia" },
  { "name": "Pearl River", "kind": "river", "lat": 23.09, "lon": 112, "region": "Asia" },
  { "name": "Amu Darya", "kind": "river", "lat": 39.22, "lon": 63.71, "region": "Asia" },
  { "name": "Syr Darya", "kind": "river", "lat": 44.98, "lon": 65.31, "region": "Asia" },
  { "name": "Ural River", "kind": "river", "lat": 51.1, "lon": 57.7, "region": "Asia" },
  { "name": "Dnieper", "kind": "river", "lat": 50.8, "lon": 30.47, "region": "Europe" },
  { "name": "Don", "kind": "river", "lat": 49.58, "lon": 41.34, "region": "Europe" },
  { "name": "Orange", "kind": "river", "lat": -29.65, "lon": 22.75, "region": "Africa" },
  { "name": "Limpopo", "kind": "river", "lat": -22.32, "lon": 31.15, "region": "Africa" },
  { "name": "Thames", "kind": "river", "lat": 51.45, "lon": -0.99, "region": "Europe" },
  { "name": "Seine", "kind": "river", "lat": 49.02, "lon": 1.62, "region": "Europe" },
  { "name": "Loire", "kind": "river", "lat": 46.76, "lon": 3.61, "region": "Europe" },
  { "name": "Rhone", "kind": "river", "lat": 45.79, "lon": 5.24, "region": "Europe" },
  { "name": "Po", "kind": "river", "lat": 45.07, "lon": 9.83, "region": "Europe" },
  { "name": "Tiber", "kind": "river", "lat": 42.68, "lon": 12.2, "region": "Europe" },
  { "name": "Elbe", "kind": "river", "lat": 51.2, "lon": 13.42, "region": "Europe" },
  { "name": "Oder", "kind": "river", "lat": 51.23, "lon": 16.49, "region": "Europe" },
  { "name": "Vistula", "kind": "river", "lat": 51.56, "lon": 21.82, "region": "Europe" },
  { "name": "Neva", "kind": "river", "lat": 59.8, "lon": 30.77, "region": "Europe" },
  { "name": "Tagus", "kind": "river", "lat": 39.68, "lon": -7.12, "region": "Europe" },
  { "name": "Douro", "kind": "river", "lat": 41.54, "lon": -5.41, "region": "Europe" },
  { "name": "Ebro", "kind": "river", "lat": 41.32, "lon": -0.4, "region": "Europe" },
  { "name": "Guadalquivir", "kind": "river", "lat": 37.79, "lon": -5.21, "region": "Europe" },
  { "name": "Hudson", "kind": "river", "lat": 43.31, "lon": -73.62, "region": "Americas" },
  { "name": "Potomac", "kind": "river", "lat": 39.24, "lon": -77.47, "region": "Americas" },
  { "name": "Delaware", "kind": "river", "lat": 41, "lon": -75.13, "region": "Americas" },
  { "name": "Fraser", "kind": "river", "lat": 52.02, "lon": -122.26, "region": "Americas" },
  { "name": "Sacramento", "kind": "river", "lat": 39.23, "lon": -121.98, "region": "Americas" },
  { "name": "Uruguay River", "kind": "river", "lat": -27.53, "lon": -54.81, "region": "Americas" },
  { "name": "Han River", "kind": "river", "lat": 37.51, "lon": 126.97, "region": "Asia" },
  { "name": "Chao Phraya", "kind": "river", "lat": 15.71, "lon": 100.14, "region": "Asia" },
  { "name": "Red River", "kind": "river", "lat": 21.7, "lon": 104.9, "region": "Asia" },
  { "name": "Tone", "kind": "river", "lat": 36.18, "lon": 139.61, "region": "Asia" },
  { "name": "Godavari", "kind": "river", "lat": 16.72, "lon": 81.93, "region": "Asia" },
  { "name": "Krishna", "kind": "river", "lat": 16.08, "lon": 78.4, "region": "Asia" },
  { "name": "Senegal", "kind": "river", "lat": 15.51, "lon": -12.96, "region": "Africa" },
  { "name": "Volta", "kind": "river", "lat": 6.83, "lon": 0.14, "region": "Africa" },
  { "name": "Darling", "kind": "river", "lat": -31.6, "lon": 143.48, "region": "Oceania" },
  { "name": "Waikato", "kind": "river", "lat": -38.31, "lon": 175.68, "region": "Oceania" },

  { "name": "Sahara", "kind": "desert", "lat": 23, "lon": 13, "region": "Africa", "big": true },
  { "name": "Arabian Desert", "kind": "desert", "lat": 23, "lon": 45, "region": "Asia" },
  { "name": "Gobi", "kind": "desert", "lat": 43, "lon": 105, "region": "Asia", "big": true },
  { "name": "Kalahari", "kind": "desert", "lat": -23, "lon": 22, "region": "Africa" },
  { "name": "Patagonian Desert", "kind": "desert", "lat": -45, "lon": -69, "region": "Americas" },
  { "name": "Great Victoria Desert", "kind": "desert", "lat": -28, "lon": 128, "region": "Oceania" },
  { "name": "Great Basin", "kind": "desert", "lat": 40, "lon": -117, "region": "Americas" },
  { "name": "Chihuahuan Desert", "kind": "desert", "lat": 27, "lon": -105, "region": "Americas" },
  { "name": "Sonoran Desert", "kind": "desert", "lat": 32, "lon": -112, "region": "Americas" },
  { "name": "Mojave Desert", "kind": "desert", "lat": 35, "lon": -116, "region": "Americas" },
  { "name": "Atacama Desert", "kind": "desert", "lat": -24, "lon": -69, "region": "Americas" },
  { "name": "Namib", "kind": "desert", "lat": -24, "lon": 15, "region": "Africa" },
  { "name": "Taklamakan", "kind": "desert", "lat": 39, "lon": 82, "region": "Asia" },
  { "name": "Karakum", "kind": "desert", "lat": 39, "lon": 59, "region": "Asia" },
  { "name": "Thar Desert", "kind": "desert", "lat": 27, "lon": 71, "region": "Asia" },

  { "name": "Amazon Rainforest", "kind": "forest", "lat": -3, "lon": -63, "region": "Americas", "big": true },
  { "name": "Congo Rainforest", "kind": "forest", "lat": -1, "lon": 23, "region": "Africa", "big": true },
  { "name": "Siberian Taiga", "kind": "forest", "lat": 60, "lon": 100, "region": "Asia", "big": true },
  { "name": "Borneo Rainforest", "kind": "forest", "lat": 0.5, "lon": 114, "region": "Asia" },
  { "name": "Valdivian Forest", "kind": "forest", "lat": -40, "lon": -73, "region": "Americas" },
  { "name": "Black Forest", "kind": "forest", "lat": 48, "lon": 8, "region": "Europe" },
  { "name": "Scandinavian Taiga", "kind": "forest", "lat": 63, "lon": 16, "region": "Europe" },

  { "name": "Lake Superior", "kind": "lake", "lat": 47.7, "lon": -87.5, "region": "Americas" },
  { "name": "Lake Victoria", "kind": "lake", "lat": -1, "lon": 33, "region": "Africa" },
  { "name": "Lake Baikal", "kind": "lake", "lat": 53.5, "lon": 108, "region": "Asia" },
  { "name": "Lake Tanganyika", "kind": "lake", "lat": -6, "lon": 29.5, "region": "Africa" },
  { "name": "Great Bear Lake", "kind": "lake", "lat": 66, "lon": -121, "region": "Americas" },
  { "name": "Lake Malawi", "kind": "lake", "lat": -12, "lon": 34.5, "region": "Africa" },
  { "name": "Lake Titicaca", "kind": "lake", "lat": -15.8, "lon": -69.3, "region": "Americas" },
  { "name": "Lake Balkhash", "kind": "lake", "lat": 46, "lon": 74, "region": "Asia" },
  { "name": "Lake Ladoga", "kind": "lake", "lat": 61, "lon": 31.5, "region": "Europe" },
  { "name": "Lake Chad", "kind": "lake", "lat": 13, "lon": 14, "region": "Africa" }
]
